City_ID,City,Country,Date,Lat,Lng,Max Temp,Humidity,Cloudiness,Wind Speed,Current Description,Rain inches (last 3 hrs),Snow inches (last 3 hrs)
0,Ushuaia,AR,2020-04-19 05:53:19,-54.8,-68.3,44.6,75,40,16.11,scattered clouds,0.0,0.0
1,Hobart,AU,2020-04-19 05:53:21,-42.88,147.33,57.0,71,75,8.05,broken clouds,0.0,0.0
2,Rikitea,PF,2020-04-19 05:53:21,-23.12,-134.97,77.61,69,82,8.99,broken clouds,0.0,0.0
3,Vaini,TO,2020-04-19 05:51:02,-21.2,-175.2,78.8,78,40,10.29,smoke,0.0,0.0
4,Leningradskiy,RU,2020-04-19 05:50:38,69.38,178.42,4.48,89,20,7.56,few clouds,0.0,0.0
5,Busselton,AU,2020-04-19 05:48:42,-33.65,115.33,69.01,36,25,17.52,scattered clouds,0.0,0.0
6,Tuktoyaktuk,CA,2020-04-19 05:50:47,69.45,-133.04,-0.4,84,75,10.29,broken clouds,0.0,0.0
7,Nouadhibou,MR,2020-04-19 05:53:22,20.93,-17.03,62.6,88,0,10.29,clear sky,0.0,0.0
8,Churapcha,RU,2020-04-19 05:53:22,62.0,132.43,20.16,83,41,8.88,scattered clouds,0.0,0.0
9,Mount Gambier,AU,2020-04-19 05:52:04,-37.83,140.77,64.4,55,40,12.75,scattered clouds,0.0,0.0
10,Qaanaaq,GL,2020-04-19 05:53:22,77.48,-69.36,14.9,83,95,19.33,overcast clouds,0.0,0.0
11,Dikson,RU,2020-04-19 05:50:44,73.51,80.55,35.2,93,100,19.75,light rain,0.84,0.0
12,Tual,ID,2020-04-19 05:53:23,-5.67,132.75,84.72,70,100,5.28,moderate rain,3.94,0.0
13,Saldanha,ZA,2020-04-19 05:53:23,-33.01,17.94,59.0,87,96,10.29,overcast clouds,0.0,0.0
14,Yumen,CN,2020-04-19 05:51:42,40.28,97.2,60.24,17,54,21.77,broken clouds,0.0,0.0
15,Salinopolis,BR,2020-04-19 05:53:23,-0.61,-47.36,80.06,80,98,4.97,overcast clouds,0.0,0.0
16,Kupang,ID,2020-04-19 05:51:49,-10.17,123.58,89.6,70,40,9.17,scattered clouds,0.0,0.0
17,Karaton,ID,2020-04-19 05:53:24,-6.34,106.1,91.4,59,20,13.87,few clouds,0.0,0.0
18,Albany,US,2020-04-19 05:53:22,42.6,-73.97,28.0,89,0,5.35,clear sky,0.0,0.0
19,Pandan,PH,2020-04-19 05:53:24,14.05,124.17,84.6,72,84,11.25,broken clouds,0.0,0.0
20,Jamestown,US,2020-04-19 05:53:24,42.1,-79.24,44.01,64,1,10.29,clear sky,0.0,0.0
21,Chokurdakh,RU,2020-04-19 05:53:25,70.63,147.92,8.62,93,100,12.53,light snow,0.0,0.11
22,Bethel,US,2020-04-19 05:50:59,41.37,-73.41,34.0,92,1,6.55,clear sky,0.0,0.0
23,Lebu,CL,2020-04-19 05:51:07,-37.62,-73.65,53.2,90,78,1.45,broken clouds,0.0,0.0
24,Bambous Virieux,MU,2020-04-19 05:50:43,-20.34,57.76,80.6,61,20,12.75,few clouds,0.0,0.0
25,Goundi,TD,2020-04-19 05:53:25,9.36,17.37,87.96,38,98,2.19,overcast clouds,0.0,0.0
26,Duzce,TR,2020-04-19 05:53:26,40.84,31.16,65.32,41,23,1.68,few clouds,0.0,0.0
27,Abu Kamal,SY,2020-04-19 05:53:26,34.45,40.92,78.73,26,9,5.3,clear sky,0.0,0.0
28,Luderitz,NA,2020-04-19 05:51:15,-26.65,15.16,59.0,87,16,4.7,few clouds,0.0,0.0
29,Tuatapere,NZ,2020-04-19 05:53:26,-46.13,167.68,48.99,77,67,8.01,light rain,0.23,0.0
30,Taoudenni,ML,2020-04-19 05:51:02,22.68,-3.98,75.36,59,87,7.31,overcast clouds,0.0,0.0
31,Nikolskoye,RU,2020-04-19 05:53:27,59.7,30.79,39.0,88,90,6.71,overcast clouds,0.0,0.0
32,San Ramon,US,2020-04-19 05:52:41,37.78,-121.98,53.6,76,1,5.82,clear sky,0.0,0.0
33,Ahuimanu,US,2020-04-19 05:53:27,21.44,-157.84,80.6,54,1,8.05,clear sky,0.0,0.0
34,Kapaa,US,2020-04-19 05:51:11,22.08,-159.32,77.0,69,20,9.17,few clouds,0.0,0.0
35,Port Elizabeth,ZA,2020-04-19 05:50:08,-33.92,25.57,59.0,93,0,4.7,clear sky,0.0,0.0
36,Mount Isa,AU,2020-04-19 05:53:28,-20.73,139.5,93.2,17,44,5.82,scattered clouds,0.0,0.0
37,Hithadhoo,MV,2020-04-19 05:53:28,-0.6,73.08,84.6,73,49,10.63,scattered clouds,0.0,0.0
38,Mana,GF,2020-04-19 05:53:28,5.66,-53.78,76.77,91,95,5.77,light rain,0.47,0.0
39,Hilo,US,2020-04-19 05:53:29,19.73,-155.09,75.2,64,90,3.36,overcast clouds,0.0,0.0
40,Labuhan,ID,2020-04-19 05:51:23,-6.88,112.21,89.38,61,65,1.5,light rain,0.15,0.0
41,East London,ZA,2020-04-19 05:53:29,-33.02,27.91,66.2,68,0,10.29,clear sky,0.0,0.0
42,Muros,ES,2020-04-19 05:53:29,42.78,-9.06,48.0,95,0,3.42,clear sky,0.0,0.0
43,Mataura,NZ,2020-04-19 05:53:30,-46.19,168.86,48.99,77,57,8.01,light rain,0.37,0.0
44,Cape Town,ZA,2020-04-19 05:53:24,-33.93,18.42,57.2,93,20,5.82,few clouds,0.0,0.0
45,Grindavik,IS,2020-04-19 05:51:51,63.84,-22.43,37.4,100,90,9.17,light rain,0.0,0.0
46,Constanta,RO,2020-04-19 05:53:31,44.18,28.65,48.2,100,75,4.7,fog,0.0,0.0
47,Mount Pleasant,US,2020-04-19 05:51:36,32.79,-79.86,68.0,100,1,11.12,clear sky,0.0,0.0
48,Yellowknife,CA,2020-04-19 05:50:55,62.46,-114.35,30.2,80,40,20.8,scattered clouds,0.0,0.0
49,Castro,BR,2020-04-19 05:53:32,-24.79,-50.01,55.02,68,58,5.26,broken clouds,0.0,0.0
50,Manono,CD,2020-04-19 05:53:32,-7.3,27.42,72.16,78,86,1.72,light rain,0.11,0.0
51,Copiapo,CL,2020-04-19 05:53:32,-27.37,-70.33,60.8,77,0,2.24,clear sky,0.0,0.0
52,Seoul,KR,2020-04-19 05:52:42,37.57,126.98,60.8,51,75,3.36,light rain,0.0,0.0
53,Zhangye,CN,2020-04-19 05:53:32,38.93,100.45,61.81,16,23,15.55,few clouds,0.0,0.0
54,Lorengau,PG,2020-04-19 05:51:07,-2.02,147.27,84.9,69,10,0.4,light rain,0.28,0.0
55,Cidreira,BR,2020-04-19 05:51:02,-30.18,-50.21,65.95,85,0,12.84,clear sky,0.0,0.0
56,Luanda,AO,2020-04-19 05:50:51,-8.84,13.23,77.0,94,75,3.36,broken clouds,0.0,0.0
57,Arraial Do Cabo,BR,2020-04-19 05:53:33,-22.97,-42.03,73.09,65,99,3.24,overcast clouds,0.0,0.0
58,Tiksi,RU,2020-04-19 05:53:33,71.69,128.87,17.6,89,70,4.76,broken clouds,0.0,0.0
59,San Quintin,MX,2020-04-19 05:53:33,30.48,-115.95,58.73,76,3,14.63,clear sky,0.0,0.0
60,Itoman,JP,2020-04-19 05:53:34,26.12,127.67,77.0,83,75,14.99,broken clouds,0.0,0.0
61,Bredasdorp,ZA,2020-04-19 05:51:01,-34.53,20.04,55.4,66,93,5.82,overcast clouds,0.0,0.0
62,Kutum,SD,2020-04-19 05:53:34,14.2,24.67,75.88,15,43,7.4,scattered clouds,0.0,0.0
63,Bluff,NZ,2020-04-19 05:53:34,-46.6,168.33,48.99,77,100,8.01,light rain,0.33,0.0
64,Sept-Iles,CA,2020-04-19 05:53:36,50.2,-66.38,28.99,74,90,8.05,overcast clouds,0.0,0.0
65,Hermanus,ZA,2020-04-19 05:53:23,-34.42,19.23,63.0,61,93,1.01,overcast clouds,0.0,0.0
66,Ponta Do Sol,PT,2020-04-19 05:50:57,32.67,-17.1,55.99,63,8,8.99,clear sky,0.0,0.0
67,Beloha,MG,2020-04-19 05:51:30,-25.17,45.05,78.8,57,0,13.29,clear sky,0.0,0.0
68,New Norfolk,AU,2020-04-19 05:50:42,-42.78,147.06,57.0,71,89,1.66,overcast clouds,0.0,0.0
69,Mahoba,IN,2020-04-19 05:53:37,25.28,79.87,103.84,8,93,13.82,overcast clouds,0.0,0.0
70,Port Alfred,ZA,2020-04-19 05:53:34,-33.59,26.89,66.99,72,0,3.0,clear sky,0.0,0.0
71,Tautira,PF,2020-04-19 05:53:37,-17.73,-149.15,78.8,83,83,2.24,light rain,1.08,0.0
72,Punta Arenas,CL,2020-04-19 05:48:38,-53.15,-70.92,42.8,75,75,11.41,broken clouds,0.0,0.0
73,Barrow,US,2020-04-19 05:53:37,71.29,-156.79,3.2,84,75,8.05,broken clouds,0.0,0.0
74,Ribeira Grande,PT,2020-04-19 05:53:37,38.52,-28.7,59.58,68,48,22.95,light rain,0.15,0.0
75,Lagoa,PT,2020-04-19 05:53:38,39.05,-27.98,60.19,64,59,21.9,light rain,0.12,0.0
76,Ha Giang,VN,2020-04-19 05:49:48,22.83,104.98,91.33,49,66,5.08,light rain,0.26,0.0
77,Nanortalik,GL,2020-04-19 05:53:38,60.14,-45.24,27.84,92,83,7.05,light snow,0.0,0.26
78,Avera,US,2020-04-19 05:51:05,33.19,-82.53,53.6,71,1,5.21,clear sky,0.0,0.0
79,Cockburn Town,TC,2020-04-19 05:53:38,21.46,-71.14,78.06,80,31,13.11,scattered clouds,0.0,0.0
80,Gambo,CF,2020-04-19 05:53:39,4.65,22.26,75.04,72,80,3.36,broken clouds,0.0,0.0
81,Albino,IT,2020-04-19 05:53:39,45.76,9.8,52.0,81,79,5.82,broken clouds,0.0,0.0
82,Sistranda,NO,2020-04-19 05:53:39,63.73,8.83,41.0,93,75,4.7,broken clouds,0.0,0.0
83,Kjollefjord,NO,2020-04-19 05:53:39,70.95,27.35,38.16,88,99,14.58,light rain,0.2,0.0
84,Butaritari,KI,2020-04-19 05:53:39,3.07,172.79,83.59,79,100,16.87,light rain,0.53,0.0
85,Shakawe,BW,2020-04-19 05:53:39,-18.37,21.85,71.24,45,100,6.31,overcast clouds,0.0,0.0
86,Luorong,CN,2020-04-19 05:53:40,24.41,109.61,84.9,65,100,8.63,light rain,1.24,0.0
87,Deputatskiy,RU,2020-04-19 05:53:40,69.3,139.9,6.87,81,100,3.96,overcast clouds,0.0,0.0
88,Nenjiang,CN,2020-04-19 05:53:40,49.18,125.22,45.36,62,100,18.92,light rain,0.67,0.0
89,Windhoek,NA,2020-04-19 05:53:40,-22.56,17.08,59.0,87,3,4.7,clear sky,0.0,0.0
90,Troitskoye,RU,2020-04-19 05:53:41,52.98,84.68,59.92,36,0,1.99,clear sky,0.0,0.0
91,Saskylakh,RU,2020-04-19 05:53:41,71.92,114.08,23.56,91,0,6.17,clear sky,0.0,0.0
92,Muswellbrook,AU,2020-04-19 05:53:41,-32.27,150.9,69.01,41,0,1.57,clear sky,0.0,0.0
93,Georgetown,MY,2020-04-19 05:51:07,5.41,100.34,91.4,70,20,8.05,few clouds,0.0,0.0
94,Pierre,US,2020-04-19 05:53:41,44.37,-100.35,43.0,56,20,12.75,few clouds,0.0,0.0
95,Panama City,PA,2020-04-19 05:50:30,8.99,-79.52,78.01,73,66,1.01,broken clouds,0.0,0.0
96,Victoria,HK,2020-04-19 05:51:32,22.29,114.16,82.0,86,29,8.01,scattered clouds,0.0,0.0
97,Yermakovskoye,RU,2020-04-19 05:53:42,53.28,92.4,60.06,29,0,6.87,clear sky,0.0,0.0
98,Vallenar,CL,2020-04-19 05:53:42,-28.57,-70.76,60.12,57,0,0.34,clear sky,0.0,0.0
99,Port Lincoln,AU,2020-04-19 05:52:20,-34.73,135.87,69.04,46,95,15.73,overcast clouds,0.0,0.0
100,Chatakonda,IN,2020-04-19 05:53:42,17.55,80.65,101.41,29,13,6.13,few clouds,0.0,0.0
101,Balabac,PH,2020-04-19 05:53:43,7.99,117.06,87.82,66,9,10.6,clear sky,0.0,0.0
102,Sumbawanga,TZ,2020-04-19 05:53:43,-7.97,31.62,60.8,87,20,4.7,few clouds,0.0,0.0
103,Necochea,AR,2020-04-19 05:49:46,-38.55,-58.74,60.01,86,93,8.01,overcast clouds,0.0,0.0
104,Mahon,ES,2020-04-19 05:53:43,39.89,4.27,60.8,100,75,13.87,light rain,0.0,0.0
105,Kodiak,US,2020-04-19 05:53:44,57.79,-152.41,44.6,75,90,8.05,overcast clouds,0.0,0.0
106,Khandyga,RU,2020-04-19 05:53:44,62.67,135.6,15.98,85,67,5.95,broken clouds,0.0,0.0
107,Isangel,VU,2020-04-19 05:53:44,-19.55,169.27,77.0,88,75,5.82,broken clouds,0.0,0.0
108,Atasu,KZ,2020-04-19 05:53:44,48.68,71.64,66.33,25,37,8.19,scattered clouds,0.0,0.0
109,Caririacu,BR,2020-04-19 05:53:45,-7.04,-39.28,65.3,84,89,0.4,light rain,0.28,0.0
110,Malindi,KE,2020-04-19 05:53:45,-3.22,40.12,79.38,85,100,18.3,moderate rain,6.98,0.0
111,Tongliao,CN,2020-04-19 05:53:45,43.61,122.27,66.69,25,100,22.93,overcast clouds,0.0,0.0
112,Avarua,CK,2020-04-19 05:53:46,-21.21,-159.78,78.8,74,47,8.05,scattered clouds,0.0,0.0
113,Manbij,SY,2020-04-19 05:53:47,36.53,37.95,64.4,55,15,3.15,few clouds,0.0,0.0
114,Akdagmadeni,TR,2020-04-19 05:53:47,39.66,35.88,55.36,30,0,4.76,clear sky,0.0,0.0
115,Hammerfest,NO,2020-04-19 05:50:37,70.66,23.68,37.4,100,98,23.04,light rain,0.19,0.0
116,Vila Velha,BR,2020-04-19 05:53:47,-20.33,-40.29,73.99,83,75,4.7,broken clouds,0.0,0.0
117,Saint Anthony,US,2020-04-19 05:51:18,45.02,-93.22,48.99,52,1,9.17,clear sky,0.0,0.0
118,Sao Felix Do Xingu,BR,2020-04-19 05:52:11,-6.64,-51.99,70.95,91,99,2.59,light rain,1.04,0.0
119,Dingle,PH,2020-04-19 05:53:24,11.0,122.67,91.69,45,14,14.76,few clouds,0.0,0.0
120,Diego De Almagro,CL,2020-04-19 05:53:48,-26.37,-70.05,56.84,49,0,0.29,clear sky,0.0,0.0
121,Atuona,PF,2020-04-19 05:53:48,-9.8,-139.03,82.45,75,68,16.37,broken clouds,0.0,0.0
122,San Cristobal,VE,2020-04-19 05:51:05,7.77,-72.22,65.93,60,45,0.89,light rain,0.13,0.0
123,Jiayuguan,CN,2020-04-19 05:53:49,39.82,98.3,56.07,18,79,13.98,broken clouds,0.0,0.0
124,Broome,US,2020-04-19 05:53:49,42.25,-75.83,32.0,91,1,8.05,clear sky,0.0,0.0
125,Cayenne,GF,2020-04-19 05:53:49,4.93,-52.33,77.0,94,75,2.24,broken clouds,0.0,0.0
126,Carnarvon,AU,2020-04-19 05:50:56,-24.87,113.63,82.4,58,14,18.34,few clouds,0.0,0.0
127,Haines Junction,CA,2020-04-19 05:53:49,60.75,-137.51,42.82,51,0,1.21,clear sky,0.0,0.0
128,Dandong,CN,2020-04-19 05:53:50,40.13,124.39,51.69,77,100,10.38,light rain,1.12,0.0
129,Kindu,CD,2020-04-19 05:51:58,-2.95,25.95,74.39,73,98,0.34,overcast clouds,0.0,0.0
130,Zavitinsk,RU,2020-04-19 05:53:50,50.12,129.45,64.49,25,100,17.18,overcast clouds,0.0,0.0
131,Nemuro,JP,2020-04-19 05:51:14,43.32,145.57,51.8,40,75,11.41,broken clouds,0.0,0.0
132,Faanui,PF,2020-04-19 05:51:24,-16.48,-151.75,83.16,74,71,13.04,light rain,0.54,0.0
133,Camacha,PT,2020-04-19 05:53:51,33.08,-16.33,60.8,77,40,11.41,scattered clouds,0.0,0.0
134,Thompson,CA,2020-04-19 05:51:19,55.74,-97.86,-0.4,64,5,3.96,clear sky,0.0,0.0
135,Ulaangom,MN,2020-04-19 05:53:51,49.98,92.07,42.71,40,0,5.03,clear sky,0.0,0.0
136,Marakkanam,IN,2020-04-19 05:53:51,12.2,79.95,90.09,57,15,10.87,few clouds,0.0,0.0
137,Jacareacanga,BR,2020-04-19 05:53:51,-6.22,-57.75,72.91,95,99,2.64,moderate rain,6.87,0.0
138,Kismayo,SO,2020-04-19 05:53:52,-0.36,42.55,84.97,71,100,7.9,light rain,1.14,0.0
139,Gornopravdinsk,RU,2020-04-19 05:51:44,60.05,69.9,49.15,55,98,11.25,overcast clouds,0.0,0.0
140,Trinidad,BO,2020-04-19 05:53:52,-14.83,-64.9,63.14,72,25,2.86,scattered clouds,0.0,0.0
141,Businga,CD,2020-04-19 05:53:52,3.33,20.88,73.8,75,77,2.89,light rain,0.11,0.0
142,Port Blair,IN,2020-04-19 05:51:18,11.67,92.75,84.69,75,14,9.62,light rain,0.24,0.0
143,Plettenberg Bay,ZA,2020-04-19 05:53:53,-34.05,23.37,76.91,31,56,10.65,broken clouds,0.0,0.0
144,Lubao,PH,2020-04-19 05:53:53,14.92,120.55,95.0,53,75,4.7,broken clouds,0.0,0.0
145,Port Macquarie,AU,2020-04-19 05:53:53,-31.43,152.92,73.0,71,8,3.0,light rain,2.29,0.0
146,Bairiki,KI,2020-04-19 05:53:53,1.33,172.98,84.2,83,75,5.82,shower rain,0.0,0.0
147,Norman Wells,CA,2020-04-19 05:51:19,65.28,-126.83,32.0,96,90,6.93,light snow,0.0,0.0
148,Coihaique,CL,2020-04-19 05:53:54,-45.58,-72.07,42.8,87,99,8.05,light rain,0.84,0.0
149,Flinders,AU,2020-04-19 05:53:54,-34.58,150.86,68.0,74,37,1.01,light rain,0.14,0.0
150,Richards Bay,ZA,2020-04-19 05:53:54,-28.78,32.04,72.75,75,28,9.1,scattered clouds,0.0,0.0
151,Hualmay,PE,2020-04-19 05:53:55,-11.1,-77.61,69.1,82,17,4.85,few clouds,0.0,0.0
152,Vila,PT,2020-04-19 05:53:55,42.03,-8.16,48.2,100,75,2.24,fog,0.0,0.0
153,Geraldton,AU,2020-04-19 05:51:44,-28.77,114.6,77.0,47,40,18.34,scattered clouds,0.0,0.0
154,Mayumba,GA,2020-04-19 05:53:56,-3.43,10.66,78.96,86,86,3.47,light rain,0.11,0.0
155,Lompoc,US,2020-04-19 05:53:56,34.64,-120.46,51.8,76,1,6.73,clear sky,0.0,0.0
156,Najran,SA,2020-04-19 05:53:56,17.49,44.13,80.6,42,75,6.93,broken clouds,0.0,0.0
157,Salalah,OM,2020-04-19 05:53:57,17.02,54.09,84.2,66,75,6.93,broken clouds,0.0,0.0
158,Atar,MR,2020-04-19 05:52:16,20.52,-13.05,61.29,60,0,9.78,clear sky,0.0,0.0
159,Smirnykh,RU,2020-04-19 05:53:57,49.75,142.83,42.64,65,38,11.05,scattered clouds,0.0,0.0
160,Titay,PH,2020-04-19 05:53:57,7.81,122.53,86.9,62,31,6.2,scattered clouds,0.0,0.0
161,Rayong,TH,2020-04-19 05:53:57,12.83,101.43,89.55,57,63,8.03,broken clouds,0.0,0.0
162,Ust-Uda,RU,2020-04-19 05:53:58,54.17,103.03,37.71,49,0,12.35,clear sky,0.0,0.0
163,Aklavik,CA,2020-04-19 05:51:18,68.22,-135.01,19.4,79,90,6.93,overcast clouds,0.0,0.0
164,Nhulunbuy,AU,2020-04-19 05:53:58,-12.23,136.77,87.8,66,73,9.17,light rain,0.65,0.0
165,Ust-Tsilma,RU,2020-04-19 05:53:58,65.44,52.15,35.24,95,100,4.18,light snow,0.0,0.37
166,Kaseda,JP,2020-04-19 05:53:58,31.42,130.32,66.2,59,90,10.29,overcast clouds,0.0,0.0
167,Saint-Philippe,RE,2020-04-19 05:50:50,-21.36,55.77,82.4,65,20,21.92,few clouds,0.0,0.0
168,Acapulco,MX,2020-04-19 05:53:59,16.86,-99.89,77.0,83,5,3.36,clear sky,0.0,0.0
169,Apt,FR,2020-04-19 05:53:59,43.88,5.4,57.2,100,90,5.82,light rain,0.0,0.0
170,Esperance,AU,2020-04-19 05:53:59,-33.87,121.9,69.8,56,40,19.46,scattered clouds,0.0,0.0
171,Macapa,BR,2020-04-19 05:53:59,0.04,-51.07,80.6,100,40,5.82,scattered clouds,0.0,0.0
172,Kharp,RU,2020-04-19 05:54:00,66.8,65.81,33.67,89,96,0.51,overcast clouds,0.0,0.0
173,Flin Flon,CA,2020-04-19 05:54:00,54.77,-101.86,16.7,94,83,5.35,broken clouds,0.0,0.0
174,Golden,US,2020-04-19 05:54:00,39.76,-105.22,46.99,75,40,4.05,scattered clouds,0.0,0.0
175,Manzanillo,CU,2020-04-19 05:54:00,20.34,-77.12,75.38,80,5,2.55,clear sky,0.0,0.0
176,Itarema,BR,2020-04-19 05:54:00,-2.92,-39.92,75.9,87,21,2.82,few clouds,0.0,0.0
177,Havoysund,NO,2020-04-19 05:54:01,71.0,24.66,37.4,100,93,23.04,light rain,0.15,0.0
178,Elat,IL,2020-04-19 05:51:24,29.56,34.95,69.8,56,20,11.41,few clouds,0.0,0.0
179,Arlit,NE,2020-04-19 05:54:01,18.74,7.39,82.54,12,12,8.25,few clouds,0.0,0.0
180,Mar Del Plata,AR,2020-04-19 05:54:01,-38.0,-57.56,63.0,87,42,10.29,scattered clouds,0.0,0.0
181,Manta,EC,2020-04-19 05:54:02,-0.95,-80.73,75.2,88,75,3.36,broken clouds,0.0,0.0
182,Fortuna,US,2020-04-19 05:53:48,40.6,-124.16,52.0,100,90,3.36,overcast clouds,0.0,0.0
183,Coquimbo,CL,2020-04-19 05:50:56,-29.95,-71.34,55.4,93,4,6.93,mist,0.0,0.0
184,Tefe,BR,2020-04-19 05:54:02,-3.35,-64.71,73.72,95,100,1.59,light rain,1.76,0.0
185,Tessalit,ML,2020-04-19 05:54:03,20.2,1.01,74.48,23,91,7.29,overcast clouds,0.0,0.0
186,Farmington,US,2020-04-19 05:54:03,36.73,-108.22,51.8,33,90,9.17,light rain,0.0,0.0
187,Assiniboia,CA,2020-04-19 05:53:44,49.63,-105.98,29.23,69,5,2.21,clear sky,0.0,0.0
188,Bela,IN,2020-04-19 05:51:41,25.93,81.98,105.94,9,76,12.59,broken clouds,0.0,0.0
189,Kaeo,NZ,2020-04-19 05:51:19,-35.1,173.78,64.99,83,100,6.04,overcast clouds,0.0,0.0
190,Tasiilaq,GL,2020-04-19 05:53:46,65.61,-37.64,30.2,92,99,11.41,light shower snow,0.0,0.0
191,Alofi,NU,2020-04-19 05:54:04,-19.06,-169.92,80.6,78,2,13.87,clear sky,0.0,0.0
192,Northview,US,2020-04-19 05:52:49,43.05,-85.6,48.99,57,1,18.34,clear sky,0.0,0.0
193,Moerai,PF,2020-04-19 05:54:04,-22.43,-151.33,80.4,80,19,11.79,light rain,0.2,0.0
194,Quatre Cocos,MU,2020-04-19 05:53:33,-20.21,57.76,80.6,61,20,12.75,few clouds,0.0,0.0
195,Piet Retief,ZA,2020-04-19 05:54:06,-27.01,30.81,58.89,64,52,0.72,light rain,0.12,0.0
196,Sao Joao Da Barra,BR,2020-04-19 05:51:24,-21.64,-41.05,70.11,80,100,8.3,overcast clouds,0.0,0.0
197,San Lazaro,BZ,2020-04-19 05:54:06,18.04,-88.66,73.36,95,7,3.96,clear sky,0.0,0.0
198,Tazovskiy,RU,2020-04-19 05:54:06,67.47,78.7,36.9,98,100,21.21,light rain,0.38,0.0
199,Nevelsk,RU,2020-04-19 05:54:06,46.67,141.86,42.8,55,0,8.95,clear sky,0.0,0.0
200,Josanicka Banja,RS,2020-04-19 05:54:07,43.39,20.75,48.2,100,99,2.26,overcast clouds,0.0,0.0
201,Namibe,AO,2020-04-19 05:50:52,-15.2,12.15,75.58,69,50,7.05,light rain,0.48,0.0
202,Iqaluit,CA,2020-04-19 05:54:07,63.75,-68.51,-9.0,76,5,5.82,clear sky,0.0,0.0
203,Upernavik,GL,2020-04-19 05:54:07,72.79,-56.15,20.17,93,98,14.92,overcast clouds,0.0,0.0
204,Narsaq,GL,2020-04-19 05:54:07,60.92,-46.05,26.6,79,100,3.36,light snow,0.0,0.0
205,Dhadar,IN,2020-04-19 05:54:08,28.33,75.06,90.77,19,75,6.87,broken clouds,0.0,0.0
206,Port Hedland,AU,2020-04-19 05:50:55,-20.32,118.57,96.8,39,18,13.87,few clouds,0.0,0.0
207,Cabo San Lucas,MX,2020-04-19 05:50:58,22.89,-109.91,66.99,85,3,11.9,clear sky,0.0,0.0
208,Hamilton,US,2020-04-19 05:54:08,39.18,-84.53,45.0,75,1,8.05,clear sky,0.0,0.0
209,Talnakh,RU,2020-04-19 05:54:08,69.49,88.4,37.4,69,100,42.5,overcast clouds,0.0,0.0
210,Husavik,IS,2020-04-19 05:53:53,66.04,-17.34,35.6,93,90,6.93,light rain,0.0,0.0
211,Tokur,RU,2020-04-19 05:54:09,53.13,132.9,28.87,78,100,4.09,snow,0.0,4.07
212,Ormara,PK,2020-04-19 05:54:09,25.21,64.64,84.76,49,49,9.86,scattered clouds,0.0,0.0
213,Port-Gentil,GA,2020-04-19 05:54:09,-0.72,8.78,80.6,94,20,6.02,few clouds,0.0,0.0
214,Clyde River,CA,2020-04-19 05:53:25,70.47,-68.59,-0.4,91,90,8.05,overcast clouds,0.0,0.0
215,Kavaratti,IN,2020-04-19 05:54:10,10.57,72.64,89.6,66,20,5.82,few clouds,0.0,0.0
216,Doume,CM,2020-04-19 05:54:10,4.23,13.45,71.6,76,95,3.56,light rain,0.2,0.0
217,Kijang,KR,2020-04-19 05:54:10,35.24,129.21,55.4,76,90,13.87,light rain,0.0,0.0
218,Airai,TL,2020-04-19 05:53:24,-8.93,125.41,72.03,49,37,4.38,light rain,0.12,0.0
219,Lata,PT,2020-04-19 05:54:10,40.16,-8.33,51.01,97,12,2.8,few clouds,0.0,0.0
220,Cherskiy,RU,2020-04-19 05:53:44,68.75,161.3,8.28,93,7,13.47,clear sky,0.0,0.0
221,Mahebourg,MU,2020-04-19 05:54:11,-20.41,57.7,80.6,61,20,12.75,few clouds,0.0,0.0
222,Gizo,SB,2020-04-19 05:54:11,-8.1,156.84,83.86,72,22,2.48,light rain,1.54,0.0
223,Ambilobe,MG,2020-04-19 05:54:11,-13.2,49.05,82.72,56,23,3.04,few clouds,0.0,0.0
224,Lalmohan,BD,2020-04-19 05:54:12,22.34,90.74,87.6,63,6,12.77,clear sky,0.0,0.0
225,Lasa,IT,2020-04-19 05:52:42,46.62,10.7,46.99,93,75,5.82,broken clouds,0.0,0.0
226,Pevek,RU,2020-04-19 05:54:12,69.7,170.31,3.31,94,74,4.61,broken clouds,0.0,0.0
227,Suntar,RU,2020-04-19 05:54:12,62.14,117.63,24.04,85,99,7.56,overcast clouds,0.0,0.0
228,Sobolevo,RU,2020-04-19 05:54:12,54.43,31.9,37.08,72,100,10.09,overcast clouds,0.0,0.0
229,Elmina,GH,2020-04-19 05:51:53,5.09,-1.35,80.51,83,82,8.05,light rain,0.68,0.0
230,Brae,GB,2020-04-19 05:54:13,60.4,-1.35,42.8,93,0,6.93,clear sky,0.0,0.0
231,Ryotsu,JP,2020-04-19 05:54:13,38.08,138.43,57.2,76,90,5.82,overcast clouds,0.0,0.0
232,Constitucion,CL,2020-04-19 05:54:13,-35.33,-72.42,56.59,83,10,12.01,clear sky,0.0,0.0
233,Huarmey,PE,2020-04-19 05:51:44,-10.07,-78.15,71.33,79,67,5.91,broken clouds,0.0,0.0
234,Omboue,GA,2020-04-19 05:54:14,-1.57,9.26,79.09,86,26,0.83,scattered clouds,0.0,0.0
235,Kununurra,AU,2020-04-19 05:51:20,-15.77,128.73,100.4,27,40,5.82,scattered clouds,0.0,0.0
236,Balsas,BR,2020-04-19 05:49:18,-7.53,-46.04,72.19,87,89,1.14,light rain,0.27,0.0
237,Tuy Hoa,VN,2020-04-19 05:54:14,13.08,109.3,87.71,56,92,7.92,overcast clouds,0.0,0.0
238,Vila Franca Do Campo,PT,2020-04-19 05:54:15,37.72,-25.43,60.8,93,75,9.17,broken clouds,0.0,0.0
239,Fussen,DE,2020-04-19 05:49:22,47.87,12.17,55.0,78,100,5.12,light rain,0.25,0.0
240,Naliya,IN,2020-04-19 05:54:15,23.27,68.83,90.5,40,60,15.7,broken clouds,0.0,0.0
241,Rawson,AR,2020-04-19 05:51:56,-43.3,-65.1,64.31,36,98,22.28,overcast clouds,0.0,0.0
242,Saint George,US,2020-04-19 05:50:59,37.1,-113.58,59.0,54,1,5.82,clear sky,0.0,0.0
243,Henties Bay,NA,2020-04-19 05:54:16,-22.12,14.28,55.99,96,31,1.01,scattered clouds,0.0,0.0
244,Laurel,US,2020-04-19 05:54:16,39.1,-76.85,41.0,62,1,3.69,clear sky,0.0,0.0
245,Coahuayana,MX,2020-04-19 05:54:16,18.73,-103.68,74.5,69,17,3.51,few clouds,0.0,0.0
246,Dakar,SN,2020-04-19 05:54:16,14.69,-17.44,66.2,82,45,20.8,scattered clouds,0.0,0.0
247,Bengkulu,ID,2020-04-19 05:54:17,-3.8,102.27,88.32,58,81,4.29,broken clouds,0.0,0.0
248,Kargat,RU,2020-04-19 05:54:17,55.2,80.28,52.61,53,86,7.49,overcast clouds,0.0,0.0
249,Osmena,PH,2020-04-19 05:54:17,10.52,119.93,85.91,66,3,6.04,clear sky,0.0,0.0
250,Sisimiut,GL,2020-04-19 05:54:17,66.94,-53.67,20.25,92,50,13.65,light snow,0.0,0.14
251,Kadoma,JP,2020-04-19 05:54:17,34.73,135.58,66.99,52,75,6.93,broken clouds,0.0,0.0
252,Nioro,GM,2020-04-19 05:54:18,13.35,-15.75,67.21,57,73,9.51,broken clouds,0.0,0.0
253,Sanmenxia,CN,2020-04-19 05:54:18,34.77,111.18,70.47,32,12,10.22,few clouds,0.0,0.0
254,Biak,ID,2020-04-19 05:54:18,-0.91,122.88,85.01,66,34,4.54,light rain,2.45,0.0
255,Gat,IL,2020-04-19 05:54:18,31.61,34.76,66.0,19,4,5.01,clear sky,0.0,0.0
256,Gigmoto,PH,2020-04-19 05:54:19,13.78,124.39,82.81,76,53,11.16,broken clouds,0.0,0.0
257,Puerto Ayora,EC,2020-04-19 05:54:19,-0.74,-90.35,80.01,89,13,5.01,light rain,0.2,0.0
258,Paracuru,BR,2020-04-19 05:51:06,-3.41,-39.03,77.0,88,32,2.24,scattered clouds,0.0,0.0
259,Puerto Ayacucho,VE,2020-04-19 05:54:19,5.66,-67.62,74.19,92,98,6.67,moderate rain,8.0,0.0
260,Nishihara,JP,2020-04-19 05:54:19,26.18,127.76,77.0,83,90,10.29,overcast clouds,0.0,0.0
261,Calvinia,ZA,2020-04-19 05:54:20,-31.47,19.78,64.51,25,51,7.4,broken clouds,0.0,0.0
262,Cheshunt,GB,2020-04-19 05:54:20,51.71,-0.04,45.0,89,21,5.01,few clouds,0.0,0.0
263,Codrington,AU,2020-04-19 05:51:57,-38.27,141.97,62.8,59,94,7.07,overcast clouds,0.0,0.0
264,Hambantota,LK,2020-04-19 05:51:16,6.12,81.12,86.5,71,17,10.47,light rain,0.24,0.0
265,Lakhimpur,IN,2020-04-19 05:54:21,27.95,80.77,100.98,12,38,2.91,scattered clouds,0.0,0.0
266,Okmulgee,US,2020-04-19 05:54:21,35.62,-95.96,60.8,63,90,10.29,overcast clouds,0.0,0.0
267,Puerto Escondido,MX,2020-04-19 05:52:40,15.85,-97.07,79.95,76,28,3.94,light rain,0.32,0.0
268,Buraydah,SA,2020-04-19 05:54:21,26.33,43.98,62.6,88,40,5.82,scattered clouds,0.0,0.0
269,Sitka,US,2020-04-19 05:54:21,57.05,-135.33,46.4,87,20,10.29,few clouds,0.0,0.0
270,Buala,SB,2020-04-19 05:54:22,-8.14,159.59,83.77,72,68,0.67,light rain,1.16,0.0
271,Thenzawl,IN,2020-04-19 05:54:22,23.32,92.75,84.2,54,0,3.36,haze,0.0,0.0
272,Cabra,ES,2020-04-19 05:54:22,37.47,-4.44,57.99,87,100,4.7,light rain,1.19,0.0
273,Sweetwater,US,2020-04-19 05:54:22,25.76,-80.37,77.0,94,1,4.7,mist,0.0,0.0
274,Piploda,IN,2020-04-19 05:54:22,23.35,75.43,100.26,12,47,15.08,scattered clouds,0.0,0.0
275,Kaitangata,NZ,2020-04-19 05:54:23,-46.28,169.85,55.0,54,81,8.01,light rain,0.45,0.0
276,Tahe,CN,2020-04-19 05:54:23,52.33,124.73,34.23,68,100,11.39,light snow,0.0,0.16
277,Chara,RU,2020-04-19 05:54:02,56.91,118.26,19.85,71,98,8.84,overcast clouds,0.0,0.0
278,Shizuishan,CN,2020-04-19 05:54:23,39.23,106.77,61.88,21,6,26.19,clear sky,0.0,0.0
279,Barcelos,PT,2020-04-19 05:53:24,41.54,-8.62,51.01,100,40,3.36,scattered clouds,0.0,0.0
280,Khatanga,RU,2020-04-19 05:54:24,71.97,102.5,27.57,96,0,6.02,clear sky,0.0,0.0
281,Longyearbyen,SJ,2020-04-19 05:53:33,78.22,15.64,26.6,86,75,3.36,broken clouds,0.0,0.0
282,Vao,NC,2020-04-19 05:54:24,-22.67,167.48,77.31,74,1,10.71,clear sky,0.0,0.0
283,Baykit,RU,2020-04-19 05:54:24,61.67,96.37,37.18,72,1,3.24,clear sky,0.0,0.0
284,Tyukhtet,RU,2020-04-19 05:54:24,56.54,89.3,50.45,48,25,12.77,scattered clouds,0.0,0.0
285,Karoi,ZW,2020-04-19 05:54:25,-16.81,29.69,65.53,50,14,7.96,few clouds,0.0,0.0
286,Adrar,MR,2020-04-19 05:54:25,20.5,-10.07,69.62,25,12,17.22,few clouds,0.0,0.0
287,Nantucket,US,2020-04-19 05:53:14,41.28,-70.1,39.2,86,20,10.29,few clouds,0.0,0.0
288,Mitsamiouli,KM,2020-04-19 05:54:25,-11.38,43.28,83.23,74,100,17.63,light rain,0.17,0.0
289,Bar Harbor,US,2020-04-19 05:54:26,44.39,-68.2,35.01,92,1,5.88,clear sky,0.0,0.0
290,Tartagal,AR,2020-04-19 05:54:26,-22.52,-63.8,59.5,65,0,2.82,clear sky,0.0,0.0
291,Meulaboh,ID,2020-04-19 05:54:26,4.14,96.13,87.15,64,48,4.27,light rain,0.61,0.0
292,Sioux Lookout,CA,2020-04-19 05:54:26,50.1,-91.92,28.4,53,90,11.41,overcast clouds,0.0,0.0
293,Erdenet,MN,2020-04-19 05:54:26,49.03,104.08,36.81,35,95,19.86,light snow,0.0,0.45
294,Tombouctou,ML,2020-04-19 05:54:26,20.0,-3.0,72.86,48,83,18.66,broken clouds,0.0,0.0
295,Marawi,PH,2020-04-19 05:54:27,8.0,124.29,76.68,65,98,3.22,light rain,2.85,0.0
296,Neiafu,TO,2020-04-19 05:54:27,-18.65,-173.98,82.4,83,40,9.17,scattered clouds,0.0,0.0
297,Sao Filipe,CV,2020-04-19 05:50:54,14.9,-24.5,70.83,71,6,15.46,clear sky,0.0,0.0
298,Zhicheng,CN,2020-04-19 05:54:27,30.3,111.5,68.65,61,70,5.3,broken clouds,0.0,0.0
299,Santa Cruz Cabralia,BR,2020-04-19 05:52:07,-16.28,-39.02,73.4,83,75,4.7,broken clouds,0.0,0.0
300,Caravelas,BR,2020-04-19 05:54:28,-17.71,-39.25,75.47,80,87,14.09,overcast clouds,0.0,0.0
301,Magadan,RU,2020-04-19 05:54:28,59.57,150.8,15.8,83,62,7.76,broken clouds,0.0,0.0
302,Pirdop,BG,2020-04-19 05:54:28,42.7,24.18,48.0,75,91,1.79,overcast clouds,0.0,0.0
303,Te Anau,NZ,2020-04-19 05:54:29,-45.42,167.72,45.55,68,46,9.04,light rain,0.72,0.0
304,San Patricio,MX,2020-04-19 05:54:29,19.22,-104.7,74.43,75,44,8.23,scattered clouds,0.0,0.0
305,Sorong,ID,2020-04-19 05:53:23,-0.88,131.25,84.0,82,82,1.97,moderate rain,4.24,0.0
306,Rocha,UY,2020-04-19 05:51:17,-34.48,-54.33,57.78,92,0,7.65,clear sky,0.0,0.0
307,Dwarka,IN,2020-04-19 05:54:30,22.24,68.97,81.36,77,55,13.18,broken clouds,0.0,0.0
308,Rio Gallegos,AR,2020-04-19 05:54:30,-51.62,-69.22,37.4,69,95,11.41,overcast clouds,0.0,0.0
309,Dosso,NE,2020-04-19 05:54:30,13.05,3.19,81.9,48,0,7.76,clear sky,0.0,0.0
310,Aguimes,ES,2020-04-19 05:54:30,27.91,-15.45,62.6,77,40,10.29,scattered clouds,0.0,0.0
311,Los Llanos De Aridane,ES,2020-04-19 05:54:30,28.66,-17.92,62.6,67,18,8.05,few clouds,0.0,0.0
312,Galveston,US,2020-04-19 05:54:31,29.37,-94.97,73.4,94,90,12.75,mist,0.0,0.0
313,Nichinan,JP,2020-04-19 05:54:31,31.6,131.37,66.2,63,75,10.29,broken clouds,0.0,0.0
314,Tanout,NE,2020-04-19 05:54:31,14.97,8.89,78.28,14,4,7.94,clear sky,0.0,0.0
315,Cravo Norte,CO,2020-04-19 05:54:31,6.3,-70.2,76.75,80,68,6.58,light rain,1.96,0.0
316,Niceville,US,2020-04-19 05:54:31,30.52,-86.48,72.0,94,1,3.49,clear sky,0.0,0.0
317,Wexford,IE,2020-04-19 05:54:32,52.33,-6.46,48.0,99,98,3.0,light rain,0.52,0.0
318,Portland,US,2020-04-19 05:49:42,45.52,-122.68,51.01,93,74,1.23,light rain,0.0,0.0
319,Trofors,NO,2020-04-19 05:54:32,65.53,13.41,42.8,93,100,6.93,mist,0.0,0.0
320,Stykkisholmur,IS,2020-04-19 05:54:32,65.08,-22.73,35.31,91,100,7.81,light rain,1.31,0.0
321,Pandamatenga,BW,2020-04-19 05:54:33,-18.53,25.63,67.93,51,88,11.95,overcast clouds,0.0,0.0
322,Lavrentiya,RU,2020-04-19 05:54:33,65.58,-171.0,18.99,93,100,9.53,light snow,0.0,0.19
323,Labrea,BR,2020-04-19 05:50:21,-7.26,-64.8,72.64,92,89,1.63,light rain,0.28,0.0
324,Esso,RU,2020-04-19 05:54:33,55.93,158.7,17.85,82,72,21.65,light snow,0.0,0.27
325,Matara,LK,2020-04-19 05:51:24,5.95,80.54,90.18,61,3,9.69,light rain,0.17,0.0
326,Harper,LR,2020-04-19 05:54:34,4.38,-7.72,79.86,84,100,7.14,light rain,0.11,0.0
327,Belyy Yar,RU,2020-04-19 05:54:34,53.6,91.39,57.2,30,0,11.18,clear sky,0.0,0.0
328,Duxbury,US,2020-04-19 05:54:34,42.04,-70.67,37.0,100,1,5.82,clear sky,0.0,0.0
329,Ancud,CL,2020-04-19 05:54:34,-41.87,-73.82,50.0,81,60,5.82,light rain,0.81,0.0
330,Tura,IN,2020-04-19 05:54:35,25.52,90.22,85.64,47,17,7.09,light rain,0.16,0.0
331,Poso,ID,2020-04-19 05:54:35,-1.4,120.75,86.23,66,58,2.3,light rain,2.99,0.0
332,Tezu,IN,2020-04-19 05:54:35,27.92,96.17,76.41,54,99,2.28,light rain,1.46,0.0
333,Pangnirtung,CA,2020-04-19 05:54:35,66.15,-65.71,0.61,82,94,3.94,overcast clouds,0.0,0.0
334,Kieta,PG,2020-04-19 05:54:36,-6.22,155.63,83.95,72,43,3.89,light rain,2.6,0.0
335,Surinam,SR,2020-04-19 05:54:36,4.0,-56.0,72.14,94,32,1.52,light rain,0.56,0.0
336,Troutdale,US,2020-04-19 05:54:36,45.54,-122.39,51.01,39,81,2.19,light rain,0.0,0.0
337,Chuy,UY,2020-04-19 05:54:36,-33.7,-53.46,63.01,90,0,9.64,clear sky,0.0,0.0
338,Yerbogachen,RU,2020-04-19 05:54:37,61.28,108.01,26.87,81,75,7.92,broken clouds,0.0,0.0
339,Bowen,AU,2020-04-19 05:54:37,-20.02,148.23,89.6,59,1,11.41,clear sky,0.0,0.0
340,Cap Malheureux,MU,2020-04-19 05:53:55,-19.98,57.61,80.6,61,20,12.75,few clouds,0.0,0.0
341,Xichang,CN,2020-04-19 05:54:37,27.9,102.26,75.96,26,62,7.49,light rain,0.94,0.0
342,Khasan,RU,2020-04-19 05:54:37,42.43,130.64,49.55,54,100,12.8,overcast clouds,0.0,0.0
343,Roanoke Rapids,US,2020-04-19 05:54:38,36.46,-77.65,43.0,100,1,3.36,clear sky,0.0,0.0
344,Provideniya,RU,2020-04-19 05:50:40,64.38,-173.3,22.5,95,100,14.41,light snow,0.0,0.21
345,Ketchikan,US,2020-04-19 05:54:38,55.34,-131.65,51.8,70,1,1.86,clear sky,0.0,0.0
346,Batelov,CZ,2020-04-19 05:54:38,49.31,15.39,50.0,98,100,1.01,moderate rain,3.73,0.0
347,Santiago,CL,2020-04-19 05:52:37,-33.46,-70.65,59.0,77,9,3.36,clear sky,0.0,0.0
348,Odweyne,SO,2020-04-19 05:54:39,9.41,45.06,76.05,51,100,10.63,light rain,1.31,0.0
349,Cabedelo,BR,2020-04-19 05:52:21,-6.98,-34.83,77.0,94,20,4.7,few clouds,0.0,0.0
350,Pisco,PE,2020-04-19 05:50:44,-13.7,-76.22,69.01,82,1,8.05,clear sky,0.0,0.0
351,Madimba,TZ,2020-04-19 05:54:39,-10.4,40.33,78.8,88,40,18.34,scattered clouds,0.0,0.0
352,Matagami,CA,2020-04-19 05:54:39,49.75,-77.63,39.2,55,90,9.17,overcast clouds,0.0,0.0
353,The Valley,AI,2020-04-19 05:50:44,18.22,-63.06,79.0,78,20,10.29,few clouds,0.0,0.0
354,Panacan,PH,2020-04-19 05:54:40,9.25,118.41,93.2,59,20,13.87,few clouds,0.0,0.0
355,Kimbe,PG,2020-04-19 05:54:40,-5.55,150.14,86.02,66,23,3.89,light rain,1.43,0.0
356,San Antero,CO,2020-04-19 05:54:40,9.37,-75.76,79.16,83,99,9.24,light rain,1.03,0.0
357,Penzance,GB,2020-04-19 05:54:40,50.12,-5.54,50.0,100,62,17.22,broken clouds,0.0,0.0
358,Terrace Bay,CA,2020-04-19 05:54:40,48.78,-87.1,19.8,91,87,14.07,overcast clouds,0.0,0.0
359,Macheng,CN,2020-04-19 05:54:41,31.18,115.03,66.7,55,38,9.37,scattered clouds,0.0,0.0
360,Ecoporanga,BR,2020-04-19 05:54:41,-18.37,-40.83,66.07,83,51,3.18,broken clouds,0.0,0.0
361,Sulangan,PH,2020-04-19 05:54:41,11.14,123.72,85.78,65,24,6.15,few clouds,0.0,0.0
362,Albemarle,US,2020-04-19 05:52:07,35.35,-80.2,43.0,87,1,4.47,clear sky,0.0,0.0
363,Bud,US,2020-04-19 05:54:42,39.45,-86.18,43.0,75,1,5.82,clear sky,0.0,0.0
364,Yulara,AU,2020-04-19 05:54:42,-25.24,130.99,98.6,17,62,12.75,broken clouds,0.0,0.0
365,Vilhena,BR,2020-04-19 05:54:42,-12.74,-60.15,66.76,85,47,2.93,scattered clouds,0.0,0.0
366,La Macarena,CO,2020-04-19 05:54:42,2.18,-73.78,68.45,83,72,3.24,broken clouds,0.0,0.0
367,Oltu,TR,2020-04-19 05:54:42,40.55,42.0,55.31,37,84,0.47,broken clouds,0.0,0.0
368,Santa Isabel Do Rio Negro,BR,2020-04-19 05:54:43,-0.41,-65.02,72.01,97,100,3.22,moderate rain,6.11,0.0
369,Shingu,JP,2020-04-19 05:52:42,33.73,135.98,64.4,55,75,14.99,broken clouds,0.0,0.0
370,Sangmelima,CM,2020-04-19 05:54:43,2.93,11.98,68.63,80,100,3.09,light rain,2.16,0.0
371,Timbiqui,CO,2020-04-19 05:54:43,2.77,-77.67,75.79,87,91,4.09,light rain,2.1,0.0
372,Fairbanks,US,2020-04-19 05:50:02,64.84,-147.72,44.6,87,90,2.24,overcast clouds,0.0,0.0
373,Sikonge,TZ,2020-04-19 05:54:44,-5.63,32.77,68.0,94,75,6.73,broken clouds,0.0,0.0
374,La Palma,US,2020-04-19 05:54:44,33.85,-118.05,60.01,71,1,6.04,clear sky,0.0,0.0
375,Vardo,NO,2020-04-19 05:54:44,70.37,31.11,35.83,89,100,9.22,overcast clouds,0.0,0.0
376,Izumo,JP,2020-04-19 05:54:44,35.37,132.77,60.8,72,75,11.41,broken clouds,0.0,0.0
377,Wanning,CN,2020-04-19 05:54:45,18.8,110.4,84.11,68,15,12.62,few clouds,0.0,0.0
378,Mehamn,NO,2020-04-19 05:54:45,71.04,27.85,38.05,90,98,13.76,light rain,0.29,0.0
379,Egvekinot,RU,2020-04-19 05:54:45,66.32,-179.17,8.92,89,100,17.72,light snow,0.0,0.19
380,Malyye Derbety,RU,2020-04-19 05:54:45,47.95,44.68,52.3,63,91,4.12,overcast clouds,0.0,0.0
381,Moose Factory,CA,2020-04-19 05:54:45,51.26,-80.61,8.6,84,90,11.41,light snow,0.0,0.0
382,Havre-Saint-Pierre,CA,2020-04-19 05:51:42,50.23,-63.6,28.4,74,1,4.7,clear sky,0.0,0.0
383,Arvika,SE,2020-04-19 05:54:46,59.66,12.59,37.4,74,0,5.82,clear sky,0.0,0.0
384,Kushima,JP,2020-04-19 05:54:46,31.46,131.23,66.2,63,75,10.29,broken clouds,0.0,0.0
385,Homer,US,2020-04-19 05:51:41,59.64,-151.55,44.01,87,75,11.41,broken clouds,0.0,0.0
386,Teya,RU,2020-04-19 05:54:46,60.38,92.63,41.76,60,1,6.42,clear sky,0.0,0.0
387,Takoradi,GH,2020-04-19 05:54:47,4.88,-1.76,80.1,82,88,7.23,light rain,2.52,0.0
388,Amga,RU,2020-04-19 05:54:47,60.9,131.96,22.41,83,78,8.16,broken clouds,0.0,0.0
389,Klaksvik,FO,2020-04-19 05:54:47,62.23,-6.59,42.8,87,0,8.05,clear sky,0.0,0.0
390,Doka,SD,2020-04-19 05:54:47,13.52,35.77,86.34,13,55,11.99,broken clouds,0.0,0.0
391,Barcelona,ES,2020-04-19 05:53:51,41.39,2.16,61.0,93,75,13.87,broken clouds,0.0,0.0
392,Lukovetskiy,RU,2020-04-19 05:54:48,64.3,41.92,33.8,86,75,8.95,broken clouds,0.0,0.0
393,Humberto De Campos,BR,2020-04-19 05:54:48,-2.6,-43.46,74.97,91,96,2.19,light rain,0.53,0.0
394,Athboy,IE,2020-04-19 05:54:48,53.62,-6.92,44.6,100,90,5.82,mist,0.0,0.0
395,Nizhnevartovsk,RU,2020-04-19 05:54:48,60.93,76.55,57.2,44,96,13.42,overcast clouds,0.0,0.0
396,San Nicolas,PH,2020-04-19 05:54:48,18.17,120.6,86.0,79,20,9.17,few clouds,0.0,0.0
397,Hauterive,FR,2020-04-19 05:54:49,46.09,3.45,52.0,93,97,5.82,light rain,0.26,0.0
398,Cape Canaveral,US,2020-04-19 05:51:10,28.41,-80.6,75.2,88,1,6.93,clear sky,0.0,0.0
399,Kaka,TM,2020-04-19 05:54:49,37.35,59.61,75.38,23,0,9.8,clear sky,0.0,0.0
400,Daytona Beach,US,2020-04-19 05:53:56,29.21,-81.02,73.0,94,1,5.82,clear sky,0.0,0.0
401,Tshela,CD,2020-04-19 05:54:49,-4.98,12.93,74.59,88,98,1.72,overcast clouds,0.0,0.0
402,Hirara,JP,2020-04-19 05:54:50,24.8,125.28,80.6,78,75,21.92,broken clouds,0.0,0.0
403,Noumea,NC,2020-04-19 05:51:47,-22.28,166.46,86.0,51,15,9.17,few clouds,0.0,0.0
404,Ostrovnoy,RU,2020-04-19 05:51:09,68.05,39.51,32.63,96,100,15.82,light snow,0.0,1.35
405,Kushiro,JP,2020-04-19 05:54:51,42.98,144.37,48.2,57,75,14.99,broken clouds,0.0,0.0
406,Pag,HR,2020-04-19 05:54:51,44.45,15.06,51.8,81,89,5.82,overcast clouds,0.0,0.0
407,Valparaiso,CL,2020-04-19 05:54:51,-33.04,-71.63,57.2,93,29,2.24,scattered clouds,0.0,0.0
408,Emirdag,TR,2020-04-19 05:54:51,39.02,31.15,57.79,28,1,1.66,clear sky,0.0,0.0
409,Lincoln,US,2020-04-19 05:54:52,40.8,-96.67,57.2,44,1,4.7,clear sky,0.0,0.0
410,Port Augusta,AU,2020-04-19 05:54:02,-32.5,137.77,75.2,29,51,19.46,broken clouds,0.0,0.0
411,Nome,US,2020-04-19 05:51:26,64.5,-165.41,35.6,93,90,4.7,overcast clouds,0.0,0.0
412,Hasaki,JP,2020-04-19 05:53:39,35.73,140.83,70.0,55,20,19.46,few clouds,0.0,0.0
413,Viedma,AR,2020-04-19 05:51:57,-40.81,-63.0,68.61,52,63,8.88,broken clouds,0.0,0.0
414,Rock Springs,US,2020-04-19 05:54:53,41.59,-109.2,37.4,40,1,9.17,clear sky,0.0,0.0
415,Mezen,RU,2020-04-19 05:54:53,65.85,44.24,33.46,94,100,7.11,light snow,0.0,0.13
416,Denia,ES,2020-04-19 05:54:53,38.84,0.11,61.0,95,100,3.0,light rain,0.0,0.0
417,Kudahuvadhoo,MV,2020-04-19 05:54:53,2.67,72.89,84.52,73,99,13.06,overcast clouds,0.0,0.0
418,Ribeira Brava,PT,2020-04-19 05:54:54,32.65,-17.07,55.99,63,7,8.99,clear sky,0.0,0.0
419,Maues,BR,2020-04-19 05:50:23,-3.38,-57.72,73.2,97,86,1.25,light rain,1.91,0.0
420,Bend,US,2020-04-19 05:54:54,44.06,-121.32,39.2,51,1,4.12,clear sky,0.0,0.0
421,Langham,CA,2020-04-19 05:51:59,52.37,-106.97,26.6,86,20,9.17,few clouds,0.0,0.0
422,Kahului,US,2020-04-19 05:54:55,20.89,-156.47,73.4,73,1,8.05,clear sky,0.0,0.0
423,Vanavara,RU,2020-04-19 05:54:55,60.34,102.28,33.19,70,0,5.41,clear sky,0.0,0.0
424,Eyl,SO,2020-04-19 05:52:18,7.98,49.82,84.58,66,87,9.17,overcast clouds,0.0,0.0
425,Great Yarmouth,GB,2020-04-19 05:54:56,52.61,1.73,46.99,99,12,5.99,few clouds,0.0,0.0
426,Sangueya,GN,2020-04-19 05:54:56,10.7,-14.37,74.12,80,98,3.11,overcast clouds,0.0,0.0
427,Dargaville,NZ,2020-04-19 05:54:57,-35.93,173.88,63.43,85,100,5.08,overcast clouds,0.0,0.0
428,Uri,IN,2020-04-19 05:54:57,34.08,74.03,65.28,29,19,2.13,light rain,0.96,0.0
429,Port Hardy,CA,2020-04-19 05:51:23,50.7,-127.42,46.4,93,75,3.36,mist,0.0,0.0
430,Clarence Town,AU,2020-04-19 05:54:57,-32.58,151.78,73.0,56,11,10.29,light rain,0.7,0.0
431,Manokwari,ID,2020-04-19 05:54:57,-0.87,134.08,84.99,67,72,4.16,light rain,1.87,0.0
432,Loa Janan,ID,2020-04-19 05:54:58,-0.58,117.09,84.24,70,98,1.5,overcast clouds,0.0,0.0
433,Torbay,CA,2020-04-19 05:51:01,47.67,-52.73,28.99,79,75,3.36,broken clouds,0.0,0.0
434,Ust-Kuyga,RU,2020-04-19 05:54:58,70.02,135.6,10.58,91,100,5.21,light snow,0.0,0.12
435,Guerrero Negro,MX,2020-04-19 05:54:58,27.98,-114.06,60.12,77,2,17.56,clear sky,0.0,0.0
436,Gayeri,BF,2020-04-19 05:54:58,12.65,0.49,82.85,56,61,12.59,broken clouds,0.0,0.0
437,Sora,IT,2020-04-19 05:54:58,41.72,13.61,60.01,72,100,0.69,overcast clouds,0.0,0.0
438,Ulladulla,AU,2020-04-19 05:54:59,-35.35,150.47,66.2,68,40,13.87,scattered clouds,0.0,0.0
439,Brigantine,US,2020-04-19 05:54:59,39.41,-74.36,43.0,69,1,8.12,clear sky,0.0,0.0
440,Paamiut,GL,2020-04-19 05:54:59,61.99,-49.67,23.56,91,96,10.25,light snow,0.0,0.12
441,Ilhabela,BR,2020-04-19 05:54:59,-23.78,-45.36,71.73,76,90,5.73,light rain,1.05,0.0
442,Grand Gaube,MU,2020-04-19 05:54:59,-20.01,57.66,80.6,61,20,12.75,few clouds,0.0,0.0
443,Umea,SE,2020-04-19 05:55:00,63.83,20.26,36.0,80,3,3.36,clear sky,0.0,0.0
444,Kologriv,RU,2020-04-19 05:55:00,58.83,44.32,39.61,70,32,3.6,scattered clouds,0.0,0.0
445,Karratha,AU,2020-04-19 05:50:43,-20.74,116.85,92.91,35,41,12.39,scattered clouds,0.0,0.0
446,Jalu,LY,2020-04-19 05:55:00,29.03,21.55,68.04,34,2,3.31,clear sky,0.0,0.0
447,Banda Aceh,ID,2020-04-19 05:53:24,5.56,95.32,86.05,66,67,4.85,broken clouds,0.0,0.0
448,Marzuq,YE,2020-04-19 05:51:44,14.4,46.47,80.67,28,68,5.35,broken clouds,0.0,0.0
449,Balad,IQ,2020-04-19 05:55:01,34.02,44.15,75.74,35,0,5.3,clear sky,0.0,0.0
450,San Carlos De Bariloche,AR,2020-04-19 05:55:01,-41.15,-71.31,48.2,81,75,16.11,light rain,0.0,0.0
451,Grinnell,US,2020-04-19 05:55:01,41.74,-92.72,51.01,71,1,8.05,clear sky,0.0,0.0
452,Goure,NE,2020-04-19 05:55:01,13.98,10.27,78.4,14,35,7.99,scattered clouds,0.0,0.0
453,Souillac,MU,2020-04-19 05:55:02,-20.52,57.52,80.6,61,20,12.75,few clouds,0.0,0.0
454,Olafsvik,IS,2020-04-19 05:51:18,64.89,-23.71,36.18,91,100,14.36,light rain,0.28,0.0
455,Eureka,US,2020-04-19 05:55:02,40.8,-124.16,52.0,89,80,1.03,broken clouds,0.0,0.0
456,Langenburg,DE,2020-04-19 05:55:02,49.25,9.85,51.8,93,21,3.36,few clouds,0.0,0.0
457,Bambanglipuro,ID,2020-04-19 05:55:02,-7.95,110.28,86.31,66,89,6.33,light rain,0.19,0.0
458,Abalak,RU,2020-04-19 05:55:03,58.13,68.59,49.91,56,99,7.49,overcast clouds,0.0,0.0
459,Coos Bay,US,2020-04-19 05:54:42,43.37,-124.22,51.8,76,90,3.36,overcast clouds,0.0,0.0
460,Sola,VU,2020-04-19 05:51:01,-13.88,167.55,83.3,77,80,10.78,light rain,0.76,0.0
461,Mastic Beach,US,2020-04-19 05:55:03,40.77,-72.85,37.0,74,1,4.7,clear sky,0.0,0.0
462,Juneau,US,2020-04-19 05:55:03,58.3,-134.42,46.4,70,1,1.43,clear sky,0.0,0.0
463,Iskateley,RU,2020-04-19 05:55:04,67.68,53.15,32.38,98,95,2.89,overcast clouds,0.0,0.0
464,Nazilli,TR,2020-04-19 05:55:04,37.92,28.32,69.66,40,0,1.43,clear sky,0.0,0.0
465,Solnechnyy,RU,2020-04-19 05:55:04,50.72,136.63,51.64,41,100,7.81,overcast clouds,0.0,0.0
466,Mosalsk,RU,2020-04-19 05:55:04,54.49,34.98,34.9,87,100,7.29,light snow,0.0,0.74
467,Tabalosos,PE,2020-04-19 05:55:05,-6.35,-76.68,62.87,62,27,1.9,scattered clouds,0.0,0.0
468,Severo-Kurilsk,RU,2020-04-19 05:50:59,50.68,156.12,31.53,93,65,18.75,broken clouds,0.0,0.0
469,Takaka,NZ,2020-04-19 05:52:11,-40.85,172.8,60.01,78,86,7.0,light rain,0.11,0.0
470,San Ignacio,BZ,2020-04-19 05:55:05,17.16,-89.07,75.99,90,67,4.0,broken clouds,0.0,0.0
471,Tateyama,JP,2020-04-19 05:55:05,34.98,139.87,68.0,40,40,9.17,scattered clouds,0.0,0.0
472,Mishkino,RU,2020-04-19 05:55:06,55.34,63.92,51.04,43,41,12.3,scattered clouds,0.0,0.0
473,Dongsheng,CN,2020-04-19 05:55:06,39.82,109.98,54.93,27,50,29.21,scattered clouds,0.0,0.0
474,Kutahya,TR,2020-04-19 05:55:06,39.42,29.98,46.4,70,0,2.24,clear sky,0.0,0.0
475,Namatanai,PG,2020-04-19 05:51:00,-3.67,152.43,83.84,73,75,7.36,light rain,0.55,0.0
476,Dunedin,NZ,2020-04-19 05:50:14,-45.87,170.5,55.0,58,55,17.13,light rain,0.16,0.0
477,Yeppoon,AU,2020-04-19 05:55:07,-23.13,150.73,71.6,94,75,14.99,heavy intensity shower rain,0.0,0.0
478,Falam,MM,2020-04-19 05:55:07,22.92,93.68,85.53,15,11,3.87,few clouds,0.0,0.0
479,Marsh Harbour,BS,2020-04-19 05:55:07,26.54,-77.06,78.93,81,5,4.59,light rain,0.23,0.0
480,Anqing,CN,2020-04-19 05:55:08,30.51,117.05,64.26,69,98,2.51,overcast clouds,0.0,0.0
481,Waterloo,CA,2020-04-19 05:51:02,43.47,-80.52,41.0,71,1,14.99,clear sky,0.0,0.0
482,Alta Floresta,BR,2020-04-19 05:55:08,-9.88,-56.09,70.43,90,54,3.02,broken clouds,0.0,0.0
483,Tiznit,MA,2020-04-19 05:55:08,29.58,-9.5,55.15,75,83,16.96,light rain,0.77,0.0
484,Pitsunda,GE,2020-04-19 05:55:09,43.16,40.34,55.4,76,20,4.47,few clouds,0.0,0.0
485,Mufumbwe,ZM,2020-04-19 05:55:09,-13.68,24.8,65.89,57,57,10.11,broken clouds,0.0,0.0
486,Ixtapa,MX,2020-04-19 05:55:09,20.7,-105.2,73.4,83,40,4.7,scattered clouds,0.0,0.0
487,Bandarbeyla,SO,2020-04-19 05:55:09,9.49,50.81,82.99,60,72,3.85,broken clouds,0.0,0.0
488,Areia Branca,BR,2020-04-19 05:51:31,-4.96,-37.14,77.61,84,81,1.34,light rain,0.68,0.0
489,San Jose,US,2020-04-19 05:55:10,37.34,-121.89,55.99,66,20,8.05,few clouds,0.0,0.0
490,Port Hawkesbury,CA,2020-04-19 05:55:10,45.62,-61.35,32.0,96,90,18.34,light snow,0.0,0.0
491,Dubinino,RU,2020-04-19 05:55:10,55.62,89.09,53.2,38,1,12.86,clear sky,0.0,0.0
492,Sangar,RU,2020-04-19 05:55:10,63.92,127.47,21.72,79,8,3.89,clear sky,0.0,0.0
493,Dicabisagan,PH,2020-04-19 05:55:10,17.08,122.42,84.94,70,17,11.83,few clouds,0.0,0.0
494,Lodja,CD,2020-04-19 05:55:11,-3.48,23.43,71.96,84,100,1.63,light rain,1.18,0.0
495,Tovuz,AZ,2020-04-19 05:55:11,40.99,45.63,64.4,52,75,16.11,broken clouds,0.0,0.0
496,Nanchang,CN,2020-04-19 05:51:03,28.68,115.88,70.12,71,72,3.91,broken clouds,0.0,0.0
497,Scarborough,GB,2020-04-19 05:55:11,54.28,-0.4,44.01,87,3,3.0,clear sky,0.0,0.0
498,Gua Musang,MY,2020-04-19 05:55:12,4.88,101.96,94.55,45,65,2.75,light rain,0.47,0.0
499,Batemans Bay,AU,2020-04-19 05:55:12,-35.72,150.18,64.0,75,28,3.0,light rain,0.2,0.0
500,Ahtopol,BG,2020-04-19 05:55:12,42.1,27.95,54.0,81,16,4.7,few clouds,0.0,0.0
501,Rzhev,RU,2020-04-19 05:55:12,56.26,34.33,35.04,82,100,5.97,light snow,0.0,0.75
502,Oranjemund,NA,2020-04-19 05:55:12,-28.55,16.43,59.13,79,51,1.7,broken clouds,0.0,0.0
503,San Francisco,US,2020-04-19 05:51:06,37.77,-122.42,55.4,66,1,10.29,clear sky,0.0,0.0
504,Otjimbingwe,NA,2020-04-19 05:55:13,-22.35,16.13,75.67,33,43,7.56,scattered clouds,0.0,0.0
505,Cocorit,MX,2020-04-19 05:55:13,27.58,-109.97,65.12,48,0,3.22,clear sky,0.0,0.0
506,Bathsheba,BB,2020-04-19 05:55:13,13.22,-59.52,78.8,74,40,17.22,scattered clouds,0.0,0.0
507,Kapoeta,SS,2020-04-19 05:55:13,4.77,33.59,78.82,53,100,7.7,light rain,1.17,0.0
508,Soyo,AO,2020-04-19 05:55:14,-6.13,12.37,78.35,83,92,4.94,overcast clouds,0.0,0.0
509,Abu Samrah,SY,2020-04-19 05:55:14,35.3,37.18,69.42,39,68,0.92,broken clouds,0.0,0.0
510,Wailuku,US,2020-04-19 05:55:14,20.89,-156.5,73.4,73,1,8.05,clear sky,0.0,0.0
511,Mao,ES,2020-04-19 05:51:33,39.89,4.27,60.8,100,75,13.87,light rain,0.0,0.0
512,Padilla,CO,2020-04-19 05:55:15,3.22,-76.31,68.0,94,75,2.24,fog,0.0,0.0
513,Sabang,ID,2020-04-19 05:55:15,5.89,95.32,85.05,67,43,4.14,scattered clouds,0.0,0.0
514,Kruisfontein,ZA,2020-04-19 05:55:15,-34.0,24.73,70.84,31,17,9.73,few clouds,0.0,0.0
515,Kaniama,CD,2020-04-19 05:55:15,-7.57,24.18,67.35,76,100,1.41,moderate rain,7.28,0.0
516,Portree,GB,2020-04-19 05:55:15,57.41,-6.19,44.01,71,0,1.01,clear sky,0.0,0.0
517,Ylivieska,FI,2020-04-19 05:55:16,64.08,24.55,37.0,79,68,5.01,broken clouds,0.0,0.0
518,Catamarca,AR,2020-04-19 05:55:16,-28.47,-65.79,55.99,83,0,3.0,clear sky,0.0,0.0
519,Alice Springs,AU,2020-04-19 05:55:16,-23.7,133.88,93.2,18,36,8.05,scattered clouds,0.0,0.0
520,Kamenka,RU,2020-04-19 05:55:16,51.32,42.77,45.0,58,6,5.01,clear sky,0.0,0.0
521,Sur,OM,2020-04-19 05:55:16,22.57,59.53,92.25,29,55,8.59,broken clouds,0.0,0.0
522,Sorland,NO,2020-04-19 05:55:17,67.67,12.69,41.04,87,99,8.72,overcast clouds,0.0,0.0
523,Basoko,CD,2020-04-19 05:55:17,1.24,23.62,74.64,82,91,2.59,overcast clouds,0.0,0.0
524,Maxixe,MZ,2020-04-19 05:55:17,-23.86,35.35,73.4,78,20,4.7,few clouds,0.0,0.0
525,Ardalstangen,NO,2020-04-19 05:55:17,61.24,7.7,32.0,89,0,1.16,clear sky,0.0,0.0
526,Nha Trang,VN,2020-04-19 05:55:17,12.25,109.18,93.2,63,20,12.75,few clouds,0.0,0.0
527,Alyangula,AU,2020-04-19 05:55:18,-13.85,136.42,86.0,74,75,9.17,broken clouds,0.0,0.0
528,Ramsar,IR,2020-04-19 05:55:18,36.92,50.64,55.4,100,90,2.24,mist,0.0,0.0
529,Tam Ky,VN,2020-04-19 05:55:18,15.57,108.48,89.6,66,20,10.29,few clouds,0.0,0.0
530,Bichura,RU,2020-04-19 05:55:18,50.59,107.6,35.4,48,97,19.62,overcast clouds,0.0,0.0
531,Margate,GB,2020-04-19 05:51:03,51.38,1.39,48.0,73,1,5.99,clear sky,0.0,0.0
532,Ballina,AU,2020-04-19 05:55:19,-28.87,153.57,80.6,69,12,12.75,few clouds,0.0,0.0
533,Kirakira,SB,2020-04-19 05:55:19,-10.45,161.92,82.38,76,100,1.14,light rain,1.32,0.0
534,Okhotsk,RU,2020-04-19 05:54:34,59.38,143.3,21.16,80,2,7.29,clear sky,0.0,0.0
535,Westport,US,2020-04-19 05:55:19,41.14,-73.36,37.4,74,1,3.36,clear sky,0.0,0.0
